{
  "list": [
    {
      "id": 1,
      "name": "Angular Connect",
      "date": "9/26/2036",
      "time": "10am",
      "location": {
        "address": "1 London Rd",
        "city": "London",
        "country": "England"
      }
    },
    {
      "id": 4,
      "name": "UN Angular Summit",
      "date": "6/10/2037",
      "time": "8am",
      "location": {
        "address": "The UN Angular Center",
        "city": "New York",
        "country": "USA"
      }
    },
    {
      "id": 5,
      "name": "Németh Ádám",
      "date": "2/26/2036",
      "time": "11pm",
      "location": {
        "address": "1 London 01",
        "city": "London ",
        "country": "ENGLAND"
      }
    },
    {
      "id": 6,
      "name": "Németh Ádám",
      "date": "2/26/2036",
      "time": "11pm",
      "location": {
        "address": "1 London 01",
        "city": "Budapest",
        "country": "MAGYARORSZAG"
      }
    },
    {
      "id": 7,
      "name": "Németh Ádám",
      "date": "2/26/2036",
      "time": "11pm",
      "location": {
        "address": "1 London 01",
        "city": "London ",
        "country": "ENGLAND"
      }
    }
  ]
}